,lat,lon,actual_lat,actual_lon,city,country,temp,clouds,humidity,wind_speed
0,-7.403356294103114,-6.627921422990511,-7.926222999999999,-14.4112011,Georgetown,SH,75.04,68,100,17.81
1,32.93584579322005,-44.954723167443234,47.6580777,-52.7355238,Torbay,CA,28.4,20,79,8.05
2,0.3812949645368221,94.9699597413159,4.1436951,96.12811459999999,Meulaboh,ID,83.1,8,100,2.04
3,-57.64826865121403,92.84576094101877,-33.6554927,115.3500188,Busselton,AU,65.77,0,99,15.9
4,3.779434915999878,9.500697412237042,4.078630599999999,9.358984,Tiko,CM,77.0,75,100,2.24
5,15.186803204610053,15.207033120342524,14.1310247,15.3189726,Mao,TD,62.85,8,27,7.52
6,-66.6908551712972,28.18426474127359,-33.9843356,24.732102,Kruisfontein,ZA,62.89,92,95,7.92
7,-3.5673952347680533,21.345295838110204,-4.3253802,20.5870955,Ilebo,CD,73.42,88,94,2.55
8,-9.23543686451084,82.96859634174845,-0.6060574,73.0892245,Hithadhoo,MV,82.65,88,100,11.27
9,34.93409256220121,80.42310537382069,34.1525864,77.57705349999999,Leh,IN,1.33,64,84,0.58
10,-0.00031525011495958655,-1.3869222910143975,4.9015794,-1.7830973,Takoradi,GH,79.9,76,100,6.91
11,0.10308255349496265,-53.01751833670547,-1.5239568,-52.5785846,Almeirim,BR,82.47,0,64,6.06
12,1.7314729815604517,45.42221862799288,2.0469343,45.3181623,Mogadishu,SO,80.4,48,100,8.25
13,0.8246834419509945,8.00108619970158,0.4161976,9.4672676,Libreville,GA,77.0,90,94,5.82
14,26.034211429504946,112.46544221560828,26.422277,112.859759,Leiyang,CN,58.35,100,100,5.79
15,0.06301160892207003,-21.228342995710914,-7.926222999999999,-14.4112011,Georgetown,SH,75.04,68,100,17.81
16,-1.8749054245369818,-32.79760120813196,-5.1961669,-35.4635381,Touros,BR,77.97,80,90,8.59
17,-19.307893500353163,-18.19752885641656,-7.926222999999999,-14.4112011,Georgetown,SH,75.04,68,100,17.81
18,38.90054494391328,-10.226103762711093,38.8066307,-9.4426867,Colares,PT,54.36,0,50,8.05
19,-23.76234353003876,-45.045413707431365,-23.8158392,-45.3664809,Ilhabela,BR,70.05,0,100,1.88
20,36.2405325617109,-54.77129216068391,46.7758459,-56.1806363,Saint-Pierre,PM,43.09,64,100,11.65
21,-0.47607871738065466,15.944109935321585,-0.4829632,15.8936224,Owando,CG,70.99,44,94,4.5
22,0.7728870206938376,-23.202407391144074,-7.926222999999999,-14.4112011,Georgetown,SH,75.04,68,100,17.81
23,-61.97069425223764,11.981294792158554,-34.4092004,19.2504436,Hermanus,ZA,54.88,92,99,3.33
24,-4.85719901143948,35.777576725232585,-4.9068418,35.7898106,Kondoa,TZ,57.4,76,90,3
25,3.199786407882721,12.625945331811419,3.7827632,12.2490697,Akonolinga,CM,68.7,92,99,2.37
26,-17.132537784199755,-0.9987966497538128,-15.9286343,-5.7151749,Jamestown,SH,67.21,80,100,19.04
27,6.163614033484122,76.9120344903201,8.1471445,77.30228679999999,Manavalakurichi,IN,77.0,20,88,4.7
28,2.303234840437205,25.56371199744163,2.8045317,24.7499112,Buta,CD,71.62,32,99,2.1
29,-45.66845034461734,26.87615626484812,-33.7139247,25.5207358,Port Elizabeth,ZA,64.4,75,88,6.93
30,7.713908460727663,-22.99289185088468,14.93305,-23.5133267,Praia,CV,78.8,76,74,11.41
31,17.52529306451247,123.06590789151458,17.032314,122.4070834,Dicabisagan,PH,80.53,56,100,3.78
32,34.204779585880466,23.69670612131138,35.2294606,23.6819128,Palaiokhora,GR,55.4,20,87,10.6
33,1.0646223507851784,-13.548804397853937,6.2907432,-10.7605239,Monrovia,LR,77.0,75,94,9.31
34,-17.193731725288334,-65.09112366557193,-16.9952597,-65.1521537,Chimore,BO,77.07,12,71,2.82
35,6.866194810103465,73.13225743388342,6.888643999999999,73.113569,Dhidhdhoo,MV,82.74,24,100,5.73
36,-38.63265162852427,36.268091878376595,-30.7781755,28.9528645,Umzimvubu,ZA,55.69,24,87,3.04
37,-19.63740306877992,10.619209362598273,-18.0580139,13.8361177,Opuwo,NA,57.54,0,57,3
38,17.818976484397115,3.9818120524147376,18.4520713,1.4096535,Kidal,ML,47.95,0,46,4.5
39,-8.657152375837121,-50.23423425802652,-8.1774335,-49.4466005,Conceicao Do Araguaia,BR,72.39,20,97,2.89
40,2.2396861491799624,-74.23706168179356,2.181718,-73.78645,La Macarena,CO,71.26,32,96,1.59
41,-11.466354635288095,51.02609565136843,-13.2026069,49.0514094,Ambilobe,MG,72.25,48,89,4.12
42,-20.361926226343293,28.973511144411916,-20.1325066,28.626479,Bulawayo,ZW,57.27,20,96,5.23
43,27.387910651770085,-14.317135389511261,28.500821,-13.8628367,Puerto Del Rosario,ES,68.0,0,68,9.17
44,2.49272175039897,-63.174040881807464,2.8235098,-60.6758331,Boa Vista,BR,82.4,40,65,8.05
45,11.592607721539663,-1.2064573838554191,11.66503,-1.0634024,Manga,BF,64.42,0,50,2.82
46,-41.584918969891845,35.59499224713377,-33.0291582,27.8545867,East London,ZA,63.39,92,100,3.49
47,0.14347600674139693,46.7214449257498,2.0469343,45.3181623,Mogadishu,SO,80.4,48,100,8.25
48,-33.65963812951612,-4.013433673298708,-15.9286343,-5.7151749,Jamestown,SH,67.21,80,100,19.04
49,4.401332382647822,-55.124001582392125,4.7710247,-55.0493375,Brokopondo,SR,81.75,32,77,7.25
50,-21.827338931894896,49.893121362351756,-21.2245142,48.3464426,Mananjary,MG,70.14,92,100,1.21
51,-1.7678392264764862,22.94272495235621,-3.5245104,23.5966577,Lodja,CD,69.15,80,95,2.33
52,43.97004077309299,123.46364579951671,43.263131,124.838154,Zhengjiatun,CN,26.8,0,71,18.03
53,-16.829982383920207,80.45411226794945,-0.6060574,73.0892245,Hithadhoo,MV,82.65,88,100,11.27
54,-55.47511027779419,42.79428296446254,-33.0291582,27.8545867,East London,ZA,63.39,92,100,3.49
55,-12.048326041314374,0.20439138067798468,-15.9286343,-5.7151749,Jamestown,SH,67.21,80,100,19.04
56,11.925547328580407,-4.023207492616871,12.1846407,-4.0848789,Solenzo,BF,64.92,0,56,5.73
57,-38.73917191501163,-93.13577506955566,-37.6097143,-73.6483294,Lebu,CL,57.09,76,97,12.77
58,-1.9383742691463244,106.52138822056362,-2.0651651,105.1643012,Mentok,ID,78.64,76,100,7.4
59,-39.913881223153,3.5248281400582284,-33.0276981,17.9176312,Saldanha,ZA,57.2,92,87,4.7
60,-9.65966476007633,-140.61867985799103,-9.803279999999999,-139.0425741,Atuona,PF,80.94,80,100,14.29
61,-21.112018119280194,28.829309388890838,-20.9398233,29.0110762,Gwanda,ZW,57.72,0,93,3.33
62,-32.82997210748655,-98.13541555735875,-37.6097143,-73.6483294,Lebu,CL,57.09,76,97,12.77
63,-41.07445477375452,-63.72171422561131,-40.8119087,-62.9962044,Viedma,AR,61.05,8,58,14.34
64,-27.988310958298815,-12.495512200945447,-15.9286343,-5.7151749,Jamestown,SH,67.21,80,100,19.04
65,-48.415035782697636,7.736253961045228,-33.9248685,18.4240553,Cape Town,ZA,60.8,75,82,12.75
66,-5.217152694698699,23.4804581881486,-4.9652806,23.4478441,Lusambo,CD,71.08,92,98,1.21
67,-1.1549289267984362,-6.729571757670117,5.101151,-7.3516558,Tabou,CI,70.72,32,98,2.59
68,-40.071652404662586,5.923911316810068,-33.9248685,18.4240553,Cape Town,ZA,60.8,75,82,12.75
69,-6.840798020062091,-62.770792067998045,-7.5169578,-63.0298013,Humaita,BR,76.57,56,93,1.88
70,82.49274244028845,20.79506545635403,78.22317220000001,15.6267229,Longyearbyen,SJ,30.2,75,92,5.82
71,-64.6855295712549,-80.11164643656952,-53.1638329,-70.9170683,Punta Arenas,CL,48.2,75,70,11.41
72,-0.6660953822254878,45.18082869906843,1.1161954,44.0318162,Barawe,SO,73.65,64,96,3
73,1.9086257070075752,-2.677149657377811,4.8665091,-2.240888,Axim,GH,80.71,76,100,8.93
74,-9.716321741522405,-82.46306923861776,-7.847994799999999,-79.1407421,Chicama,PE,64.4,75,82,4.7
75,26.96644643289133,-63.01087492179603,32.2945837,-64.7858887,Hamilton,BM,69.8,40,100,4.7
76,1.6038267297193216,30.96275920106354,1.6195446,31.3026883,Kigorobya,UG,72.3,56,100,4.61
77,15.455618579533493,18.440308309171566,13.2166179,18.3385977,Ati,TD,64.24,8,47,3.78
78,-1.2759463863123326,75.41273060962652,-0.6060574,73.0892245,Hithadhoo,MV,82.65,88,100,11.27
79,7.353500470221524,-11.127164880088975,7.4644778,-11.2382107,Gorahun,SL,73.69,0,97,3.11
80,-51.106800390554014,107.80355851689694,-35.0275298,117.883959,Albany,AU,62.67,0,75,11.95
81,27.960255777633414,-10.458379593137519,29.693392,-9.732156999999999,Tiznit,MA,33.73,0,82,2.04
82,-6.367985352007,-12.142127720481632,-7.926222999999999,-14.4112011,Georgetown,SH,75.04,68,100,17.81
83,-2.2429162243954726,2.9411370431869512,-0.7351025999999999,8.7591311,Port-Gentil,GA,79.36,76,99,6.8
84,0.0,2.1736798076709003,5.7872343,0.8913523,Anloga,GH,82.4,20,83,5.82
85,31.436153339394046,124.75090637696015,31.32316399999999,121.59359,Shenjiamen,CN,61.7,90,88,8.95
86,-42.3102541318709,37.83476649006459,-30.7781755,28.9528645,Umzimvubu,ZA,55.69,24,87,3.04
87,5.542621896582631,-85.03348944847998,8.03,-82.87361109999999,Burica,PA,77.65,92,100,14.18
88,2.3135690389698014,-109.65452108982296,17.6625661,-101.58734,Ixtapa,MX,86.0,5,70,5.73
89,0.45581153625977766,32.306301515096536,0.3987229,32.47927440000001,Wakiso,UG,69.8,40,94,5.82
90,56.82371581472963,60.826234757028466,56.760278,60.82083300000001,Koltsovo,RU,26.6,90,92,4.47
91,-8.94048557350201,-6.015325361932943,-15.9286343,-5.7151749,Jamestown,SH,67.21,80,100,19.04
92,-69.3036834529895,8.82424796662612,-34.4092004,19.2504436,Hermanus,ZA,54.88,92,99,3.33
93,-38.398485261691995,9.3256837597239,-33.9248685,18.4240553,Cape Town,ZA,60.8,75,82,12.75
94,25.650608699399555,-67.80120317439862,21.4674584,-71.13891009999999,Cockburn Town,TC,80.8,56,99,19.55
95,-39.97745978293109,-61.72458834891982,-38.8766081,-62.0707813,Punta Alta,AR,71.71,0,67,15.86
96,10.777727238357151,-59.76761503284044,11.1869803,-60.7301511,Scarborough,TT,78.8,40,88,8.05
97,-47.00425544177583,3.273316306778537,-33.9248685,18.4240553,Cape Town,ZA,60.8,75,82,12.75
98,0.6182924696070167,68.78541749812752,0.531061,72.99772519999999,Thinadhoo,MV,82.51,80,100,14.12
99,19.891623672263247,-2.212127716825139,18.904265,-3.5275161,Araouane,ML,50.83,0,40,7.58
100,-17.79965740465433,74.88464127878581,-20.2888094,57.78141199999999,Grand River South East,MU,73.4,75,88,3.36
101,-43.81507230393178,-95.68090890184362,-42.4801402,-73.7624137,Castro,CL,49.03,92,89,5.23
102,22.803299761373534,-125.25891108410615,30.56087669999999,-115.9379302,San Quintin,MX,62.89,76,74,5.23
103,-15.72453149290529,31.104267975185053,-12.743858,31.7313223,Luangwa,ZM,65.23,56,97,3
104,-14.879291752365614,-8.970095664595615,-15.9286343,-5.7151749,Jamestown,SH,67.21,80,100,19.04
105,-3.473784235411838,-21.655045406676905,-7.926222999999999,-14.4112011,Georgetown,SH,75.04,68,100,17.81
106,41.779873651754684,-97.7668663018145,36.8507689,-76.28587259999999,Norfolk,US,44.46,90,93,5.82
107,-45.22415181015335,-51.97008535177762,-38.0054771,-57.5426106,Mar Del Plata,AR,53.6,0,71,6.93
108,-5.447170507502804,23.931216278925987,-4.9652806,23.4478441,Lusambo,CD,71.08,92,98,1.21
109,-29.90705273203882,0.05312339736168892,-15.9286343,-5.7151749,Jamestown,SH,67.21,80,100,19.04
110,17.540267147524123,23.68899791030346,14.2025174,24.6638251,Kutum,SD,51.46,0,34,7.92
111,-33.65224421236862,20.07630466456742,-33.8020653,19.8875431,Robertson,ZA,53.08,92,100,2.48
112,-4.0723330266790825,10.612123896577462,-3.4426092,10.6562606,Mayumba,GA,77.2,92,100,8.59
113,-7.841714629279522,-3.424273326731899,-15.9286343,-5.7151749,Jamestown,SH,67.21,80,100,19.04
114,0.867434228241572,-120.6298542118921,-9.803279999999999,-139.0425741,Atuona,PF,80.94,80,100,14.29
115,22.015172882434797,98.15652350662496,22.9664576,97.7525352,Lashio,MM,70.99,20,76,2.48
116,32.615669869520666,37.187167247854106,5.0333333,-54.75000000000001,Sabha,JO,77.0,0,94,4.7
117,-51.42370998264008,-1.3002089994539368,-33.9248685,18.4240553,Cape Town,ZA,60.8,75,82,12.75
118,-5.096019086096736,69.84338317847477,-0.6060574,73.0892245,Hithadhoo,MV,82.65,88,100,11.27
119,-7.332803256888656,-123.82558112856515,-9.803279999999999,-139.0425741,Atuona,PF,80.94,80,100,14.29
120,76.84058357448305,-12.896976674642165,70.48556909999999,-21.9628757,Illoqqortoormiut,GL,22.57,80,100,27.42
121,8.268279366275758,-87.82251591977715,10.2609675,-85.5843632,Santa Cruz,CR,78.8,75,88,8.05
122,-18.450685857856534,101.31450557937865,-6.9852341,106.5475399,Palabuhanratu,ID,82.2,20,84,4.9
123,-1.1077662121621552,0.015407999986138288,4.9015794,-1.7830973,Takoradi,GH,79.9,76,100,6.91
124,-1.1178613047899992,-85.81578573097283,-0.8674715,-89.436391,San Cristobal,EC,69.8,75,77,11.41
125,-11.563131000003594,-32.22351250397211,-9.010379799999999,-35.2208051,Maragogi,BR,74.23,88,98,10.38
126,-37.22673755869541,53.954455295828616,-25.0225309,46.9853688,Taolanaro,MG,69.8,40,88,20.8
127,1.4154776707129855,97.96083581033892,1.7368371,98.78511209999999,Sibolga,ID,77.7,44,91,2.48
128,7.73167836494339,-19.379125340903165,11.2987384,-15.8378366,Bubaque,GW,82.65,20,100,5.23
129,-1.698831781927775,83.33669899094367,6.1428829,81.12123079999999,Hambantota,LK,81.88,20,100,12.95
130,-0.08154571967926127,-41.57097147437372,-2.7617805,-42.275917,Tutoia,BR,78.37,8,86,12.44
131,-41.351001418939575,-88.87883519728645,-41.8675003,-73.8276965,Ancud,CL,50.47,80,83,4.79
132,6.991380771733873,-118.25511425024558,22.8905327,-109.9167371,Cabo San Lucas,MX,82.4,5,61,3.36
133,17.011432174554727,7.460012830380417,16.9741689,7.986535,Agadez,NE,54.43,0,39,4.34
134,-1.357572833703356,-13.593946492471293,-7.926222999999999,-14.4112011,Georgetown,SH,75.04,68,100,17.81
135,4.3229416612960385,0.3644448586579241,10.9662089,-0.4714694,Teshie,GH,70.09,24,42,4.5
136,-0.09829803143642024,-130.4034244798514,-9.803279999999999,-139.0425741,Atuona,PF,80.94,80,100,14.29
137,61.363647303025715,8.517418756580923,60.8630354,8.5523882,Hemsedal,NO,10.2,68,89,2.33
138,-21.875522802117196,-17.746326725962838,-15.9286343,-5.7151749,Jamestown,SH,67.21,80,100,19.04
139,-15.268593373649585,-89.37998867631683,-10.0664169,-78.1506824,Huarmey,PE,54.39,8,92,1.21
140,-56.34885861003441,-67.48675085348953,-54.8019121,-68.3029511,Ushuaia,AR,46.4,20,75,16.11
141,44.75111245527664,-85.68254157276255,44.7630567,-85.62063169999999,Traverse City,US,34.16,90,100,5.79
142,-12.22621356859443,-1.8127980167979791,-15.9286343,-5.7151749,Jamestown,SH,67.21,80,100,19.04
143,-4.92825029645747,4.933044588867011,-1.575187,9.2591571,Omboue,GA,80.22,88,100,9.04
144,21.067194221761678,23.861453299519543,17.9236623,19.1107114,Faya,TD,60.69,8,27,10.54
145,35.14208789810366,5.5725759391092975,36.360155,6.642433,Constantine,DZ,41.0,75,80,11.41
146,-5.737196360187413,-29.890479108738493,-6.966667,-34.833333,Cabedelo,BR,77.0,20,83,4.7
147,17.56920369193028,7.522115300613198,16.9741689,7.986535,Agadez,NE,54.43,0,39,4.34
148,7.844570023913033,12.733034908045926,7.3730873,12.6532004,Tignere,CM,64.6,44,63,3.27
149,50.746910615629496,-44.274774677322064,47.6580777,-52.7355238,Torbay,CA,28.4,20,79,8.05
150,-43.60043987482758,-6.419649166960291,-33.0276981,17.9176312,Saldanha,ZA,57.2,92,87,4.7
151,16.497744540025142,-11.2621605265076,15.5121868,-12.8486076,Maghama,MR,63.07,8,31,6.02
152,-36.57256691497874,29.940282832873862,-33.0291582,27.8545867,East London,ZA,63.39,92,100,3.49
153,-1.9426704424015981,7.803098168791588,-1.575187,9.2591571,Omboue,GA,80.22,88,100,9.04
154,-0.1881075086780748,73.76912092721267,-0.6060574,73.0892245,Hithadhoo,MV,82.65,88,100,11.27
155,-32.24886698852871,96.2087280834637,-28.7773715,114.6149715,Geraldton,AU,78.8,0,39,16.11
156,-30.077493224620945,-0.42740699584489994,-15.9286343,-5.7151749,Jamestown,SH,67.21,80,100,19.04
157,1.9873329551171328,-72.68928189119735,10.249349,-74.914706,Calamar,CO,84.2,40,83,6.93
158,-38.18683079462567,5.375786336008657,-33.0276981,17.9176312,Saldanha,ZA,57.2,92,87,4.7
159,-64.39190477222573,-75.69325660441353,-54.8019121,-68.3029511,Ushuaia,AR,46.4,20,75,16.11
160,24.87365486663475,9.895759542765525,24.509445,118.1089531,Gat,LY,75.2,40,78,4.47
161,9.438142742624919,15.418250175264568,9.3090846,15.7938069,Kelo,TD,66.58,8,53,4
162,41.239655505572664,-51.501854403700754,47.6580777,-52.7355238,Torbay,CA,28.4,20,79,8.05
163,-25.917940892489487,-0.16837238461251935,-15.9286343,-5.7151749,Jamestown,SH,67.21,80,100,19.04
164,16.214503462759154,103.18998964945952,16.0132015,103.1615169,Maha Sarakham,TH,80.6,20,78,4.7
165,7.195189944334672,-4.523835504160955,7.0659131,-4.495428899999999,Bocanda,CI,73.42,0,92,5.61
166,-85.55960458229065,-41.17972310736679,-54.8019121,-68.3029511,Ushuaia,AR,46.4,20,75,16.11
167,-26.780994851243946,9.619391768782277,-26.6420382,15.1639082,Luderitz,NA,59.0,0,82,9.17
168,20.091288893092205,22.871312583398478,17.9236623,19.1107114,Faya,TD,60.69,8,27,10.54
169,5.2027433279193085,45.490147198570355,4.1228001,43.88880959999999,Xuddur,SO,59.83,12,88,3.04
170,74.14435655856846,-86.47308205717033,77.4670434,-69.2284827,Qaanaaq,GL,-22.21,8,100,8.3
171,49.001045774507176,-12.637159694781152,52.14093889999999,-10.2640135,Dingle,IE,53.49,92,97,10.16
172,-5.879519965837167,-133.17461598045585,-9.803279999999999,-139.0425741,Atuona,PF,80.94,80,100,14.29
173,13.078859408911153,23.256648657114226,13.467399,22.1966734,Adre,TD,55.78,8,59,3.6
174,17.508650817978793,34.700571891165794,44.3668418,-100.3538526,Barbar,SD,37.4,1,74,7.14
175,20.420038670544155,-110.3219893901431,22.8905327,-109.9167371,Cabo San Lucas,MX,82.4,5,61,3.36
176,-1.5855306795842399,-20.014044510238293,-7.926222999999999,-14.4112011,Georgetown,SH,75.04,68,100,17.81
177,22.45615138018277,-41.306186973993846,17.2004826,-25.0925624,Ponta Do Sol,CV,78.82,68,97,13.89
178,-19.76232905723979,-20.84419099413295,-7.926222999999999,-14.4112011,Georgetown,SH,75.04,68,100,17.81
179,9.006678959193806,20.092322920492165,8.4101505,20.6481794,Ndele,CF,66.58,8,78,3.27
180,31.01430715308315,112.61031193903227,23.344175,112.700095,Yingzhong,CN,71.6,90,94,2.24
181,-19.6227618338164,10.69692304621254,-18.0580139,13.8361177,Opuwo,NA,57.54,0,57,3
182,-10.808453206086089,11.48675683760014,-11.2122554,13.8477121,Sumbe,AO,71.35,0,100,3.33
183,-37.346245201857094,-156.27973785509167,-23.3470634,-149.4850445,Mataura,PF,72.88,92,100,6.35
184,0.927598852384643,21.055067112387185,1.5073967,21.0728664,Bongandanga,CD,69.01,20,99,2.21
185,59.35504066085558,-84.8842395806171,52.9258846,-82.42889219999999,Attawapiskat,CA,10.29,20,100,7.25
186,8.846594161921942,25.49280698506346,43.9013835,-103.589238,Raga,SD,41.41,1,38,3.33
187,50.33924393723939,66.32374567882361,51.098127,66.3165471,Derzhavinsk,KZ,29.14,76,91,3.11
188,-67.7475260866174,9.255440768349194,-34.4092004,19.2504436,Hermanus,ZA,54.88,92,99,3.33
189,-15.87720233984972,-90.71955043342187,-10.0664169,-78.1506824,Huarmey,PE,54.39,8,92,1.21
190,2.547890863252915,2.4464360258502964,5.7872343,0.8913523,Anloga,GH,82.4,20,83,5.82
191,-18.363237609096814,-23.242147874480676,-7.926222999999999,-14.4112011,Georgetown,SH,75.04,68,100,17.81
192,0.010787815791398758,94.81909159451959,1.7368371,98.78511209999999,Sibolga,ID,77.7,44,91,2.48
193,53.294020433143736,67.32000895245571,53.8819303,67.406408,Sergeyevka,KZ,26.89,88,95,3.56
194,46.32427279484843,-98.11893461322727,46.9233129,-98.0031547,Valley City,US,29.59,1,100,4.7
195,24.64958841741593,-59.31440342268532,18.2148129,-63.0574406,The Valley,AI,78.19,76,100,15.41
196,23.09516362233306,-2.1994511154799854,22.6764132,-3.9789143,Taoudenni,ML,46.96,0,45,3.38
197,-6.402690608450692,35.21988528217852,-5.881877999999999,35.2175944,Kintinku,TZ,62.26,8,80,3.78
198,-18.950033884433434,-3.6999500712545768,-15.9286343,-5.7151749,Jamestown,SH,67.21,80,100,19.04
199,-13.650453128079596,-12.221166316446082,-7.926222999999999,-14.4112011,Georgetown,SH,75.04,68,100,17.81
200,59.95770306851438,-48.556733087182664,61.99411509999999,-49.6665709,Paamiut,GL,35.26,92,97,24.4
201,7.078938806454168,6.4144811568899245,7.066864499999999,6.274773400000001,Auchi,NG,74.05,0,93,7.4
202,-47.75090394968717,97.54513077277227,-33.6554927,115.3500188,Busselton,AU,65.77,0,99,15.9
203,14.39587971540427,5.406931655487058,14.4634704,5.250162899999999,Illela,NE,61.99,0,33,7.29
204,-3.8370122985328963,40.57207188184351,-3.682530499999999,39.8553399,Takaungu,KE,74.14,80,96,4.27
205,13.26292291681176,-0.6144706747760842,13.0910405,-1.0873551,Kaya,BF,60.19,0,58,2.89
206,-43.04771639948082,-6.016413953182957,-33.0276981,17.9176312,Saldanha,ZA,57.2,92,87,4.7
207,-11.12551285577391,-139.5464062492153,-9.803279999999999,-139.0425741,Atuona,PF,80.94,80,100,14.29
208,-4.461424369529894,63.4803463837914,-4.619143,55.4513149,Victoria,SC,77.0,20,94,2.24
209,-1.6582724831886753,-6.790093952463179,4.3759676,-7.700941599999999,Harper,LR,77.7,56,100,3.04
210,-70.57723057732784,14.26142494351124,-34.4092004,19.2504436,Hermanus,ZA,54.88,92,99,3.33
211,27.88208725185846,-16.886119991566883,28.1220604,-16.7338211,Adeje,ES,63.73,20,72,5.82
212,7.95660344147488,4.4478002549579845,7.845558799999999,4.4928531,Ilobu,NG,74.05,8,92,6.62
213,-9.967596678923302,29.50112379027538,-9.7936959,29.0809012,Kawambwa,ZM,64.92,36,96,3.56
214,-6.700673778690931,11.622944427087935,-6.1410265,12.3521148,Soyo,AO,76.93,92,87,5.73
215,-23.15871298286909,7.470225890169873,-22.1134964,14.2832038,Henties Bay,NA,58.39,92,100,7.58
216,-10.716560439483139,-21.501127079887876,-7.926222999999999,-14.4112011,Georgetown,SH,75.04,68,100,17.81
217,21.845457260394603,65.45297465129993,24.1429453,67.4509061,Keti Bandar,PK,75.58,0,100,10.16
218,-20.04798890857071,-59.77291422703698,-19.9210258,-60.7766392,Mayor Pablo Lagerenza,PY,71.62,20,67,4.56
219,4.739578449701,-131.30520702374469,-9.803279999999999,-139.0425741,Atuona,PF,80.94,80,100,14.29
220,-9.020988286976245,67.49061723194139,-0.6060574,73.0892245,Hithadhoo,MV,82.65,88,100,11.27
221,28.320453691376496,21.906456305115224,29.040621,21.4991334,Jalu,LY,49.39,0,78,2.89
222,17.830095281129914,-12.133015031447286,16.3460472,-13.9463043,Bababe,MR,67.03,24,34,9.6
223,46.030364711319265,-49.732922420714885,47.6580777,-52.7355238,Torbay,CA,28.4,20,79,8.05
224,13.09166916419818,-22.200458325909032,14.93305,-23.5133267,Praia,CV,78.8,76,74,11.41
225,-32.67795721678631,14.514703246273406,-33.0276981,17.9176312,Saldanha,ZA,57.2,92,87,4.7
226,10.40824595702161,137.21105987612165,7.396611799999999,134.5690225,Airai,PW,81.72,90,88,6.93
227,-60.669840087379306,-102.36458542061328,-53.1638329,-70.9170683,Punta Arenas,CL,48.2,75,70,11.41
228,-39.78686416757123,6.074973147486332,-33.0276981,17.9176312,Saldanha,ZA,57.2,92,87,4.7
229,8.244100158108104,7.7234971456312005,8.8471213,7.8776023,Keffi,NG,79.05,68,69,1.81
230,-3.9554660334741887,-21.342982725211908,-7.926222999999999,-14.4112011,Georgetown,SH,75.04,68,100,17.81
231,-31.66887161990561,-68.4503424886844,-31.5351074,-68.5385941,San Juan,AR,69.6,0,57,2.1
232,-26.143435306987016,-5.585294203892788,-15.9286343,-5.7151749,Jamestown,SH,67.21,80,100,19.04
233,-67.12167671464728,4.184917454006019,-34.4092004,19.2504436,Hermanus,ZA,54.88,92,99,3.33
234,64.93796518225041,-16.044738776262502,64.24970259999999,-15.2020077,Hofn,IS,42.01,0,98,23.62
235,64.12214459809073,66.21938708021358,62.5160807,65.87913689999999,Andra,RU,23.56,92,88,6.8
236,-1.5819883189754969,-18.847307395011434,-7.926222999999999,-14.4112011,Georgetown,SH,75.04,68,100,17.81
237,-3.952642486351045,-2.0188416137630534,4.8665091,-2.240888,Axim,GH,80.71,76,100,8.93
238,38.06900350846883,0.0,38.5410566,-0.1224937,Benidorm,ES,48.2,0,36,10.29
239,22.648875944607816,-9.250636237259545,20.5072923,-13.052978,Atar,MR,57.9,92,32,3.22
240,30.64819146586675,-27.374730952295636,37.7428301,-25.6805868,Ponta Delgada,PT,66.2,75,88,24.16
241,-24.251098499759333,-3.1305609372031658,-15.9286343,-5.7151749,Jamestown,SH,67.21,80,100,19.04
242,19.246838303253135,47.646597499664324,17.5656036,44.2289441,Najran,SA,57.2,0,35,2.26
243,22.88873924723508,53.952399112926244,24.453884,54.3773438,Abu Dhabi,AE,75.11,0,57,4.7
244,-35.134989258566854,-124.92141809213044,-23.119901,-134.9702654,Rikitea,PF,76.21,32,99,7.58
245,-2.522470883757752,-92.24159208522815,-0.7432918,-90.3156893,Puerto Ayora,EC,68.11,0,100,9.82
246,-42.564398179286194,-30.0786774167432,-22.9657374,-42.02798689999999,Arraial Do Cabo,BR,69.8,20,83,8.05
247,4.756659686971772,-4.628306411138732,5.2059806,-4.4233534,Jacqueville,CI,78.8,40,88,8.05
248,-9.921702979172922,96.84124993395928,-3.5778471,102.3463875,Bengkulu,ID,72.12,92,95,2.48
249,36.62533123417648,14.581399376855526,36.7932122,14.706973,Scicli,IT,53.6,40,100,6.93
250,-5.14435299879676,96.06625401547699,-0.9470831999999999,100.417181,Padang,ID,83.64,92,100,3
251,8.784886913701095,2.431336437575456,8.8879709,2.5941239,Tchaourou,BJ,79.54,12,67,7.74
252,5.702273343594883,38.22135162940704,5.7645403,38.9119977,Shakiso,ET,53.49,92,94,2.33
253,-1.9659689995801617,-98.45153372120366,-0.7432918,-90.3156893,Puerto Ayora,EC,68.11,0,100,9.82
254,9.403639872551658,155.90187249924168,-2.5781167,150.8086082,Kavieng,PG,86.02,32,100,8.3
255,21.046619038629796,-29.67984924640705,17.2004826,-25.0925624,Ponta Do Sol,CV,78.82,68,97,13.89
256,73.62500206544334,79.0916834661154,73.50489,80.58091689999999,Dikson,RU,5.29,48,100,8.14
257,-12.886811521362363,-12.374531923665234,-7.926222999999999,-14.4112011,Georgetown,SH,75.04,68,100,17.81
258,4.3091986679986,13.371342660255591,4.2399992,13.4482868,Doume,CM,66.13,56,97,2.26
259,-18.240360900210643,26.722287919642316,-18.3558779,26.5019976,Hwange,ZW,63.43,68,94,6.13
260,-14.449518900390782,-112.9824827481603,-23.119901,-134.9702654,Rikitea,PF,76.21,32,99,7.58
261,1.5405567171530845,-2.9546960721638778,4.8665091,-2.240888,Axim,GH,80.71,76,100,8.93
262,-0.9327387535854108,-1.6630594625799515,4.9015794,-1.7830973,Takoradi,GH,79.9,76,100,6.91
263,24.122519084497693,-29.68866326844952,17.2004826,-25.0925624,Ponta Do Sol,CV,78.82,68,97,13.89
264,14.996357821271001,19.985031948487656,14.5257818,20.9238397,Biltine,TD,57.72,0,55,4.56
265,0.2902473179478411,-28.076943989054516,-5.1961669,-35.4635381,Touros,BR,77.97,80,90,8.59
266,-4.390188533998222,-18.575550942383703,-7.926222999999999,-14.4112011,Georgetown,SH,75.04,68,100,17.81
267,-40.76548111710223,15.974950035490771,-34.4092004,19.2504436,Hermanus,ZA,54.88,92,99,3.33
268,-36.30285888704357,104.8355620134143,-33.6554927,115.3500188,Busselton,AU,65.77,0,99,15.9
269,-2.226998732677613,-8.789308384163272,4.3759676,-7.700941599999999,Harper,LR,77.7,56,100,3.04
270,10.73427529503568,-106.37136179474248,17.9567646,-102.1943485,Lazaro Cardenas,MX,78.15,0,100,3
271,16.917734727661447,-38.6859742016305,17.2004826,-25.0925624,Ponta Do Sol,CV,78.82,68,97,13.89
272,-0.13285013672397694,-13.390445666642437,5.887246999999999,-10.0303723,Buchanan,LR,77.0,75,94,5.61
273,33.41291492051322,9.733098889682356,33.888077,10.0975221,Qabis,TN,51.67,40,58,26.4
274,19.205833293383023,-75.6309152152269,20.01693,-75.8301537,Santiago De Cuba,CU,77.74,75,100,4.7
275,1.4603928607267245,51.81584502892315,5.3515922,48.5249751,Hobyo,SO,76.12,8,91,12.62
276,-33.73571444873575,-21.296464739032483,-21.6368603,-41.0484529,Sao Joao Da Barra,BR,72.75,12,100,11.32
277,2.0225165337138935,-70.85463045076776,34.02734969999999,-118.4757513,Mitu,CO,65.05,1,82,4.7
278,-19.14846384513774,123.73586604397859,-17.9614336,122.235852,Broome,AU,86.0,40,55,11.41
279,21.54736937333102,-72.43881598441585,21.499849,-71.5323346,Cockburn Harbour,TC,80.8,56,99,19.55
280,40.486789700259955,-97.91598904476746,40.5862583,-98.38987259999999,Hastings,US,44.13,90,93,8.05
281,-28.626782231295806,-23.796703249025878,-20.3477821,-40.2949528,Vila Velha,BR,73.4,75,78,6.93
282,-19.0383407496945,-61.33528650025781,-19.9210258,-60.7766392,Mayor Pablo Lagerenza,PY,71.62,20,67,4.56
283,12.638297243721412,24.541370124528957,14.2025174,24.6638251,Kutum,SD,51.46,0,34,7.92
284,29.771269857146287,2.5588358451080606,27.9716342,-0.1869644,Adrar,DZ,51.8,0,34,8.05
285,-0.4369597757684346,26.253017900682867,0.5185303,25.2007728,Kisangani,CD,69.82,44,100,2.21
286,-59.16039335887804,-7.834254225727685,-33.9248685,18.4240553,Cape Town,ZA,60.8,75,82,12.75
287,38.64522708876588,-76.78916011773389,38.7706879,-76.83749949999999,Rosaryville,US,42.49,20,93,4.9
288,14.360078221566269,-44.26130905915673,4.92242,-52.3134531,Cayenne,GF,78.8,88,88,6.93
289,-0.16928773092702543,43.93051964449452,0.0668528,42.7442571,Jamame,SO,75.45,44,94,2.26
290,-1.9537394573513611,-36.739979476562574,-3.8996737,-38.389906,Aquiraz,BR,78.8,0,78,4.7
291,19.00951469926921,-4.739114259086014,18.904265,-3.5275161,Araouane,ML,50.83,0,40,7.58
292,60.707337273224354,-26.084926545982366,64.89604849999999,-23.7060262,Olafsvik,IS,41.11,64,100,24.47
293,-4.959835335653311,-50.431699832772836,-5.1345016,-49.332012,Itupiranga,BR,80.6,0,88,2.24
294,-29.17753387335184,53.37190982301592,-25.0225309,46.9853688,Taolanaro,MG,69.8,40,88,20.8
295,1.0753471757758568,5.939865726805742,-0.7351025999999999,8.7591311,Port-Gentil,GA,79.36,76,99,6.8
296,52.70199894900119,-0.9642931278060515,52.6368778,-1.1397592,Leicester,GB,43.11,40,81,14.99
297,1.599637206151748,-41.057451671247726,-2.9014475,-40.8388865,Camocim,BR,75.99,32,91,11.43
298,37.328425468705035,-2.5268448466315516,37.4862228,-2.7769904,Baza,ES,21.27,0,76,2.33
299,-2.1775309033469217,-1.449932830545853,4.9015794,-1.7830973,Takoradi,GH,79.9,76,100,6.91
300,11.514994617066355,-88.48738988424385,12.4907414,-87.1784334,Corinto,NI,75.76,32,92,3.56
301,-2.1252536541638527,-17.115556192138907,-7.926222999999999,-14.4112011,Georgetown,SH,75.04,68,100,17.81
302,-2.0125385456670486,-7.007058530353396,4.3759676,-7.700941599999999,Harper,LR,77.7,56,100,3.04
303,35.260775500273446,-113.16111138774846,34.7575227,-112.4537809,Chino Valley,US,61.39,1,14,2.59
304,30.393872994593817,-9.966472040251006,30.4277547,-9.5981072,Agadir,MA,53.6,20,93,9.17
305,-31.535749953862474,62.956047246365614,-20.5180739,57.52638589999999,Souillac,MU,73.4,75,88,3.36
306,-5.56558924759527,-51.711043272969206,-6.641438,-51.9825889,Sao Felix Do Xingu,BR,74.77,20,99,2.26
307,-24.28281786886173,-41.18316007444306,-22.9657374,-42.02798689999999,Arraial Do Cabo,BR,69.8,20,83,8.05
308,20.627273746672536,50.255732565670925,24.7466105,50.8460992,Abu Samrah,QA,64.15,0,58,11.1
309,33.15676324924179,-23.655239712729127,37.7157269,-25.4345063,Vila Franca Do Campo,PT,66.2,75,88,24.16
310,12.363629852715514,99.40854709467602,12.245087,99.95768489999999,Sam Roi Yot,TH,82.4,20,78,5.84
311,13.811028950745236,139.66241899001432,7.396611799999999,134.5690225,Airai,PW,81.72,90,88,6.93
312,-39.6981921835916,-11.238784080415142,-15.9286343,-5.7151749,Jamestown,SH,67.21,80,100,19.04
313,-1.6221781961827233,18.62521347012921,-1.9296172,18.291137,Inongo,CD,70.77,20,98,2.55
314,-18.28821677960777,-126.33560421669264,-23.119901,-134.9702654,Rikitea,PF,76.21,32,99,7.58
315,-1.845378332697563,1.1925204894981287,4.9015794,-1.7830973,Takoradi,GH,79.9,76,100,6.91
316,-2.156854731642664,-55.87006104476758,-2.1633702,-56.0952549,Juruti,BR,83.23,12,47,5.73
317,4.666024341370373,-34.71317843411793,-3.3072032,-39.3621196,Trairi,BR,74.14,68,91,6.85
318,-18.186040450030852,-46.98022672069649,-17.9924805,-46.9027651,Vazante,BR,70.99,56,54,4.79
319,0.10288418216735096,89.4875197500819,4.1436951,96.12811459999999,Meulaboh,ID,83.1,8,100,2.04
320,-5.034871908623337,54.99968009015198,-4.619143,55.4513149,Victoria,SC,77.0,20,94,2.24
321,36.950715029119294,-1.3387647489647236,37.4119365,-1.5826055,Aguilas,ES,51.37,0,100,14.07
322,48.121376377222774,45.59336046405502,47.852196,45.418304,Bolshoy Tsaryn,RU,40.8,80,80,2.82
323,23.95009704576769,23.5935760313008,29.040621,21.4991334,Jalu,LY,49.39,0,78,2.89
324,-84.07002183413724,-149.5587673933971,-23.3470634,-149.4850445,Mataura,PF,72.88,92,100,6.35
325,56.98625661224197,83.69998597474353,57.344554,83.9240162,Krivosheino,RU,3.31,44,93,6.91
326,23.31107196904753,0.7362970170418617,20.2573532,0.9910297999999998,Tessalit,ML,45.7,0,49,5.91
327,-23.815478850428562,29.180527235359794,-23.8961708,29.4486263,Pietersburg,ZA,66.2,0,72,2.77
328,7.771176130825036,42.52144963813436,9.3125556,42.1226825,Harer,ET,43.81,0,72,2.48
329,11.465793461869417,127.77011936696734,10.9350177,125.8293593,Sulangan,PH,81.16,76,100,8.59
330,1.831032063905056,-61.58776661877016,2.8235098,-60.6758331,Boa Vista,BR,82.4,40,65,8.05
331,16.639310112370932,-87.04602620271146,16.3273562,-86.5627851,Sandy Bay,HN,77.0,40,94,4.7
332,47.58569675255852,-42.95429931082061,47.6580777,-52.7355238,Torbay,CA,28.4,20,79,8.05
333,-14.62825152840616,71.09355303268252,-0.6060574,73.0892245,Hithadhoo,MV,82.65,88,100,11.27
334,-18.94016170211699,4.635625603558495,-15.1978317,12.1575544,Namibe,AO,69.15,8,100,9.82
335,2.7988442932863604,35.921950843513095,3.1155165,35.6040785,Lodwar,KE,67.75,0,88,3.6
336,-7.553957139390878,1.2472245875646233,-1.575187,9.2591571,Omboue,GA,80.22,88,100,9.04
337,-33.242839572421836,-36.196899069592625,-22.9657374,-42.02798689999999,Arraial Do Cabo,BR,69.8,20,83,8.05
338,-20.508182212832033,-147.6106963368516,-17.8470814,-149.2664419,Teahupoo,PF,86.0,20,62,17.22
339,75.57106799362857,38.75417973777911,68.878911,35.6675264,Tumannyy,RU,29.37,80,98,5.12
340,-9.471099316914206,18.85237283809886,-9.661217299999999,20.3904598,Saurimo,AO,64.6,48,97,2.55
341,2.1189405844821074,-19.63372045403459,7.525702799999999,-12.5039922,Bonthe,SL,77.47,8,96,4
342,-50.090759567706876,35.16066492094725,-33.5864065,26.8851448,Port Alfred,ZA,64.2,92,100,3.6
343,-47.27224507826485,54.933791270166886,-25.0225309,46.9853688,Taolanaro,MG,69.8,40,88,20.8
344,6.619087647080565,-88.35220506993187,10.1445678,-85.4530295,Nicoya,CR,78.8,75,88,8.05
345,44.458412380285694,-7.339993086567659,43.671212,-7.410357299999999,Cervo,ES,56.5,0,100,18.1
346,-17.222442357416067,11.217178817774535,-15.1978317,12.1575544,Namibe,AO,69.15,8,100,9.82
347,1.086927010901534,-2.474897661702469,4.8665091,-2.240888,Axim,GH,80.71,76,100,8.93
348,37.522668212508414,67.05228621051177,37.2610694,67.30862359999999,Termiz,UZ,52.88,90,61,4.7
349,34.122566612120416,56.25181390768178,33.6033455,56.9323531,Tabas,IR,40.03,0,59,5.57
350,-6.999013382331636,53.185782913555485,-4.619143,55.4513149,Victoria,SC,77.0,20,94,2.24
351,63.74638941411683,40.65828196157917,63.61163699999999,40.52547089999999,Samoded,RU,34.32,88,87,8.52
352,-11.624048462990046,-29.674653852006298,-8.889821399999999,-35.1515042,Sao Jose Da Coroa Grande,BR,74.23,88,98,10.38
353,-15.84273088411577,-32.78502118661035,-15.8612433,-38.879799,Belmonte,BR,73.4,0,94,3.36
354,71.90745742380338,-71.71283873388899,70.47636500000002,-68.60126509999999,Clyde River,CA,-4.01,90,83,9.17
355,28.643741340958524,-18.624527406301425,28.6577222,-17.9122017,Los Llanos De Aridane,ES,68.0,20,77,10.29
356,-39.36913396529116,-118.55189222627524,-23.119901,-134.9702654,Rikitea,PF,76.21,32,99,7.58
357,0.09890357109283365,-46.6995152811549,-0.6228817999999999,-47.3468841,Salinopolis,BR,80.53,88,97,13.18
358,55.87284518562934,108.02620869770082,57.69515010000001,93.2753817,Kazachinskoye,RU,9.25,80,84,3.78
359,-20.970232851045914,9.70893607765677,-22.1134964,14.2832038,Henties Bay,NA,58.39,92,100,7.58
360,-22.353761989655716,-4.971451201793519,-15.9286343,-5.7151749,Jamestown,SH,67.21,80,100,19.04
361,18.32761196254385,41.22342431132481,21.2779576,-157.82886,Abha,SA,81.05,40,51,14.99
362,2.088285581397576,-49.05713383034841,0.9019925,-52.0029565,Amapa,BR,81.88,0,63,4.27
363,49.414795628465676,39.511320543229644,49.49232550000001,39.617514,Markivka,UA,43.9,88,96,9.08
364,-3.4806339622451716,64.89388918709979,-0.6060574,73.0892245,Hithadhoo,MV,82.65,88,100,11.27
365,-21.26630488243461,-38.82290546100981,-20.3477821,-40.2949528,Vila Velha,BR,73.4,75,78,6.93
366,13.1704827959049,1.0776670119566223,12.6513142,0.4915329000000001,Gayeri,BF,62.04,0,55,2.71
367,-6.313389321069199,-76.45066931140616,-6.424309099999999,-76.5083562,Lamas,PE,75.2,40,94,4.7
368,-74.98204432264745,-40.79297380724948,-54.8019121,-68.3029511,Ushuaia,AR,46.4,20,75,16.11
369,30.42349965261533,-16.563794818508065,28.4797948,-16.4133213,Tacoronte,ES,62.92,24,87,18.34
370,43.80440925377398,-42.38524493076211,47.6580777,-52.7355238,Torbay,CA,28.4,20,79,8.05
371,-0.45648974250523,139.3736018798663,-2.6896767,141.2998457,Vanimo,PG,81.39,12,100,3.49
372,33.53157493034603,0.9202129915871664,34.10748640000001,2.1008486,Aflu,DZ,40.3,76,94,12.95
373,-14.513013844228501,8.068648671575836,-15.1978317,12.1575544,Namibe,AO,69.15,8,100,9.82
374,63.714695425879725,-159.89185592909814,40.6098147,-122.3585019,Bethel,US,59.0,75,82,9.17
375,1.6633818932102273,52.375824816123426,5.3515922,48.5249751,Hobyo,SO,76.12,8,91,12.62
376,-36.67374365862241,21.07663336002293,-34.5385222,20.0568771,Bredasdorp,ZA,60.8,92,87,11.41
377,-5.292654613641296,-9.063036389760684,-7.926222999999999,-14.4112011,Georgetown,SH,75.04,68,100,17.81
378,80.58678766376069,-21.630721619630755,70.48556909999999,-21.9628757,Illoqqortoormiut,GL,22.57,80,100,27.42
379,-20.987658487101697,3.0153407305171354,-15.9286343,-5.7151749,Jamestown,SH,67.21,80,100,19.04
380,-33.4997073600539,-66.56246571389529,-33.3017267,-66.3377522,San Luis,AR,84.54,12,25,15.57
381,-0.5242423271236918,69.98746338542517,-0.6060574,73.0892245,Hithadhoo,MV,82.65,88,100,11.27
382,0.0,-5.147202933827757,5.101151,-7.3516558,Tabou,CI,70.72,32,98,2.59
383,-75.019926427645,0.7351354955941356,-34.4092004,19.2504436,Hermanus,ZA,54.88,92,99,3.33
384,-4.665416968734416,-56.32462868719896,-4.2670701,-55.99311729999999,Itaituba,BR,80.04,24,75,4.23
385,-18.08700676058992,12.726603859258685,-18.0580139,13.8361177,Opuwo,NA,57.54,0,57,3
386,4.427387439071818,7.779378829832057,4.5133512,7.5410328,Opobo,NG,74.23,0,96,4.79
387,1.731441174475953,-20.29877943070947,8.427560999999999,-13.285784,Goderich,SL,80.08,0,99,8.52
388,6.80928395523801,-87.92196658887146,10.1445678,-85.4530295,Nicoya,CR,78.8,75,88,8.05
389,-63.77002557367009,-90.7367528489039,-53.1638329,-70.9170683,Punta Arenas,CL,48.2,75,70,11.41
390,69.73843130480903,17.75922467244965,69.232038,17.9808554,Finnsnes,NO,30.6,64,100,2.33
391,-35.03082004241943,27.851716439943694,-33.5864065,26.8851448,Port Alfred,ZA,64.2,92,100,3.6
392,7.537634477535299,120.45857776960722,16.1632208,121.8676464,Simbahan,PH,77.97,88,95,2.71
393,-42.99000311110083,1.0981929382210367,-33.9248685,18.4240553,Cape Town,ZA,60.8,75,82,12.75
394,44.727431778240444,-148.02048131281268,57.79000000000001,-152.4072221,Kodiak,US,37.4,1,47,19.46
395,-4.684937382685096,-3.5220876506072427,4.8665091,-2.240888,Axim,GH,80.71,76,100,8.93
396,-2.0189037527310907,72.5263764843141,-0.6060574,73.0892245,Hithadhoo,MV,82.65,88,100,11.27
397,0.9164097798537004,-106.44594601638072,-0.7432918,-90.3156893,Puerto Ayora,EC,68.11,0,100,9.82
398,22.073759124831867,139.14125409495293,26.2123124,127.6791568,Naze,JP,75.79,75,100,6.93
399,8.87067830207927,6.372778849129447,9.0796794,6.009701799999999,Bida,NG,76.84,0,67,2.82
400,-43.89223734468351,-36.74178335005527,-30.1760123,-50.2098593,Cidreira,BR,57.85,0,91,3.11
401,4.14755604129993,-1.2792735374277349,4.9015794,-1.7830973,Takoradi,GH,79.9,76,100,6.91
402,-28.668175603619627,54.689101290699824,-21.3246183,55.64675829999999,Saint-Joseph,RE,74.23,90,88,9.17
403,1.9052653396216304,-141.4795576958252,-9.803279999999999,-139.0425741,Atuona,PF,80.94,80,100,14.29
404,-28.199536816675764,-105.56599666566876,-23.119901,-134.9702654,Rikitea,PF,76.21,32,99,7.58
405,9.60465968523447,13.053793488989074,9.322601599999999,13.393389,Garoua,CM,67.17,8,54,3.89
406,8.763687096775932,32.42380798454956,9.5279875,31.6682347,Malakal,SD,71.62,0,67,2.59
407,-61.86313180997154,21.332807960055288,-34.5385222,20.0568771,Bredasdorp,ZA,60.8,92,87,11.41
408,18.43788812752019,-88.54041441023408,18.4030802,-88.3967536,Corozal,BZ,73.4,75,94,6.93
409,-39.415534752630215,-1.8435152077372554,-33.0276981,17.9176312,Saldanha,ZA,57.2,92,87,4.7
410,7.2383034841315315,-25.997115026154077,14.8951679,-24.4945636,Sao Filipe,CV,80.04,80,94,14.07
411,71.47683459692497,4.319958135175429,53.667609,-115.9877489,Bud,NO,19.4,90,92,6.93
412,66.36155943999984,-75.57592403708406,63.74669300000001,-68.5169669,Iqaluit,CA,6.8,90,77,6.93
413,5.1935900085535724,55.362220411997555,7.980799599999999,49.8150661,Eyl,SO,73.2,0,100,14.63
414,-7.7854371724391465,-32.39144948077024,-7.3989338,-34.8403408,Pitimbu,BR,77.0,20,83,4.7
415,35.34946906312033,-9.433155211430902,37.1027881,-8.6730275,Lagos,PT,55.4,0,58,8.05
416,1.6746911226126726,74.71107821053906,-0.6060574,73.0892245,Hithadhoo,MV,82.65,88,100,11.27
417,-9.54704849259941,65.9042164003973,-0.6060574,73.0892245,Hithadhoo,MV,82.65,88,100,11.27
418,9.400481716815047,-7.301482330564271,9.518875399999999,-7.557223100000001,Odienne,CI,79.14,92,52,2.77
419,28.27462075664826,14.90765396750307,26.1303472,100.1954373,Hun,LY,52.63,0,43,2.55
420,23.906412631147614,161.0754862867893,35.7453776,140.8272903,Hasaki,JP,55.99,75,93,3.36
421,42.96849611059274,-15.710915671763912,42.8073676,-9.0460525,Muros,ES,42.8,0,75,1.12
422,72.59510534371667,-31.658192550069412,65.6134561,-37.6335696,Tasiilaq,GL,30.2,44,68,4.7
423,-33.286770114388936,23.084015839384907,-33.287665,23.4895156,Willowmore,ZA,55.78,92,78,4.34
424,-48.93941892404893,56.41603720019417,-25.0225309,46.9853688,Taolanaro,MG,69.8,40,88,20.8
425,-20.26290547761873,35.18533266101653,-19.7963816,34.8844867,Beira,MZ,73.4,75,94,3.36
426,17.797619236266172,-58.90546068611063,16.2542635,-61.283115,Saint-Francois,GP,78.8,40,74,5.82
427,8.111321704559373,-23.852656259292555,14.93305,-23.5133267,Praia,CV,78.8,76,74,11.41
428,3.0740428869963288,0.5008200277768894,5.3622295,-0.6298922,Winneba,GH,80.6,0,88,4.7
429,-7.4224156346427135,-8.499605489650119,-7.926222999999999,-14.4112011,Georgetown,SH,75.04,68,100,17.81
430,8.433695406159098,-21.69986858782417,11.2987384,-15.8378366,Bubaque,GW,82.65,20,100,5.23
431,22.467158408147185,76.09818772434016,22.2532435,76.0407918,Barwaha,IN,70.32,0,55,3.11
432,-11.727237394226604,31.078692607558022,-11.8280231,31.4513314,Mpika,ZM,61.9,68,83,2.21
433,-21.76324760700826,131.26890312071723,-23.698042,133.8807471,Alice Springs,AU,82.4,32,54,8.05
434,60.969931919758956,2.006072404025989,60.77731009999999,4.9329066,Aras,NO,42.8,92,93,34.45
435,0.21138045496585178,31.18565101668797,0.0637715,31.3541631,Sembabule,UG,57.31,24,92,2.77
436,-16.324678651008046,-60.39597513334649,37.9735346,-122.5310874,San Rafael,BO,60.66,90,87,4.7
437,-46.653992868849855,-65.52288481480426,-45.8656149,-67.4822429,Comodoro Rivadavia,AR,69.8,0,32,28.86
438,28.00727239463914,-110.80723917996085,27.9664523,-110.8135688,Empalme,MX,84.2,90,54,4.05
439,-13.817248564360838,-63.94515355990782,37.7799273,-121.9780153,San Ramon,BO,62.08,90,77,6.93
440,0.28228705372568685,102.00507415996205,1.0710103,101.2920619,Balaipungut,ID,75.2,20,94,3.04
441,-4.411498145844842,11.257912215378584,-4.76732,11.8627984,Loandjili,CG,78.1,88,90,9.6
442,-31.517324327920043,-1.491489583821859,-15.9286343,-5.7151749,Jamestown,SH,67.21,80,100,19.04
443,-7.429923324240846,4.131738436327076,10.5321226,-0.4384458,Gamba,GA,70.09,24,42,4.5
444,31.163303942650856,-0.4471342327400949,27.9716342,-0.1869644,Adrar,DZ,51.8,0,34,8.05
445,-7.458357014797439,1.007044689962298,-1.575187,9.2591571,Omboue,GA,80.22,88,100,9.04
446,19.716406536187655,35.06173699846336,18.8320729,36.8304102,Sinkat,SD,68.74,0,92,13.33
447,-5.255309712474556,5.773905369211555,10.5321226,-0.4384458,Gamba,GA,70.09,24,42,4.5
448,72.53894313428049,-32.323148343985025,65.6134561,-37.6335696,Tasiilaq,GL,30.2,44,68,4.7
449,11.332454678134269,10.942404220603795,11.7072355,11.0824912,Potiskum,NG,62.71,0,56,4.79
450,-0.9115364123794073,71.29922612198945,-0.6060574,73.0892245,Hithadhoo,MV,82.65,88,100,11.27
451,-0.8669811023620337,0.25548082393666016,4.9015794,-1.7830973,Takoradi,GH,79.9,76,100,6.91
452,-15.910180425303178,-37.85915538513598,-15.8612433,-38.879799,Belmonte,BR,73.4,0,94,3.36
453,-3.413625413029815,128.52844565259846,-3.336395,128.9221949,Amahai,ID,84.9,0,100,3.78
454,-21.4287096442225,4.883181568815353,-22.1134964,14.2832038,Henties Bay,NA,58.39,92,100,7.58
455,13.678091737986296,-12.21310813897245,14.0818308,-9.9018131,Kayes,ML,62.08,0,41,5.23
456,-33.07834119696625,0.45570155819625313,-26.6420382,15.1639082,Luderitz,NA,59.0,0,82,9.17
457,1.101600296063269,-6.662244109395646,5.101151,-7.3516558,Tabou,CI,70.72,32,98,2.59
458,-1.7097409916323,-33.36949154915282,-5.1961669,-35.4635381,Touros,BR,77.97,80,90,8.59
459,-49.17233622528386,-75.57381897843469,-45.5712254,-72.068265,Coihaique,CL,46.87,0,53,6.93
460,18.480442428724295,-72.57084615300134,18.5128379,-72.623987,Leogane,HT,79.27,48,90,2.26
461,-4.843347212495499,5.647058827795374,-1.575187,9.2591571,Omboue,GA,80.22,88,100,9.04
462,10.504021195725327,-26.256104776295448,14.8951679,-24.4945636,Sao Filipe,CV,80.04,80,94,14.07
463,-25.52100947409242,167.98965120269372,-22.6658429,167.4960078,Vao,NC,72.16,24,100,13.62
464,-2.348233831606923,10.228033387266873,10.5321226,-0.4384458,Gamba,GA,70.09,24,42,4.5
465,12.866576690577446,10.353154779609602,12.8775114,10.4565159,Nguru,NG,62.8,0,35,6.58
466,63.09709069007615,-27.68541628580999,64.89604849999999,-23.7060262,Olafsvik,IS,41.11,64,100,24.47
467,8.156963502459547,-32.24444623359935,14.8951679,-24.4945636,Sao Filipe,CV,80.04,80,94,14.07
468,46.044995662823936,16.845091605629776,46.1639381,16.8334753,Koprivnica,HR,38.5,92,91,20.56
469,-44.55035027937252,-40.790367085385554,-33.692754,-53.4552817,Chuy,UY,59.83,0,93,9.15
470,6.597165484881342,-133.82946950096104,-9.803279999999999,-139.0425741,Atuona,PF,80.94,80,100,14.29
471,-2.3338316662996816,16.016926426892184,-2.1587078,16.2345633,Bolobo,CD,70.99,12,98,2.37
472,-60.996538852650026,7.105830387850929,-34.4092004,19.2504436,Hermanus,ZA,54.88,92,99,3.33
473,-2.4469552526359397,-27.975254116417695,-5.7792569,-35.200916,Natal,BR,78.8,20,78,6.93
474,23.428907544167416,98.26616145467685,22.9664576,97.7525352,Lashio,MM,70.99,20,76,2.48
475,-5.5569642908045385,-127.01336392461846,-9.803279999999999,-139.0425741,Atuona,PF,80.94,80,100,14.29
476,-23.415344544862073,38.1938900604722,-23.8879561,35.3959879,Inhambane,MZ,70.18,0,100,7.74
477,-18.86677893028925,-74.23634119927183,-16.6235522,-72.7104708,Camana,PE,59.52,56,100,3.89
478,-28.07957974754104,25.21197878604773,-27.8846801,25.1533426,Christiana,ZA,70.63,76,51,16.46
479,19.629923107205567,-0.07754832960668301,20.2573532,0.9910297999999998,Tessalit,ML,45.7,0,49,5.91
480,-82.55183364202047,5.0433308142972155,-34.4092004,19.2504436,Hermanus,ZA,54.88,92,99,3.33
481,16.708314944564485,74.80997210328765,16.626382,74.8565613,Kudchi,IN,67.17,0,59,3.22
482,14.23354310982493,-46.396407305827125,5.3746712,-52.9545991,Sinnamary,GF,79.0,92,100,8.59
483,-13.277970322592779,-103.56231233458774,-0.7432918,-90.3156893,Puerto Ayora,EC,68.11,0,100,9.82
484,20.079055357687224,37.14491277244367,19.1040389,37.3292861,Sawakin,SD,74.37,12,100,5.01
485,-20.035993061889112,115.89068363194919,-20.73535,116.8458043,Karratha,AU,91.74,0,33,9.15
486,-41.57573555686546,-4.423489955217496,-33.0276981,17.9176312,Saldanha,ZA,57.2,92,87,4.7
487,-52.605142710648764,-0.20721867884558476,-33.9248685,18.4240553,Cape Town,ZA,60.8,75,82,12.75
488,-63.33033251373698,-17.768656013819932,-30.1760123,-50.2098593,Cidreira,BR,57.85,0,91,3.11
489,19.422463955142945,0.23389384627614307,20.2573532,0.9910297999999998,Tessalit,ML,45.7,0,49,5.91
490,-38.17481499314221,-21.601152043700484,-22.9657374,-42.02798689999999,Arraial Do Cabo,BR,69.8,20,83,8.05
491,-0.43668184580814706,-16.0268117361165,-7.926222999999999,-14.4112011,Georgetown,SH,75.04,68,100,17.81
492,33.12222318428723,-31.833556311088287,37.8210369,-25.5148137,Ribeira Grande,PT,66.2,75,88,24.16
493,24.67422521490371,-20.0287963675204,28.6577222,-17.9122017,Los Llanos De Aridane,ES,68.0,20,77,10.29
494,-1.2959665694221196,4.623272236813046,-0.7351025999999999,8.7591311,Port-Gentil,GA,79.36,76,99,6.8
495,-9.619552994220692,109.13551786795729,-7.962063799999998,110.2415217,Srandakan,ID,79.45,92,93,4.12
496,-17.71809013864858,18.790198457354062,-17.9253295,19.7532148,Rundu,NA,77.0,76,33,3.36
497,27.370777169624365,-4.434844984960549,27.9716342,-0.1869644,Adrar,DZ,51.8,0,34,8.05
498,-27.20645731864567,-7.104557775085898,-15.9286343,-5.7151749,Jamestown,SH,67.21,80,100,19.04
499,-57.63996533971648,30.854269253822427,-33.7139247,25.5207358,Port Elizabeth,ZA,64.4,75,88,6.93
500,6.10276373711992,-140.14517292281852,-9.803279999999999,-139.0425741,Atuona,PF,80.94,80,100,14.29
501,-51.17890563805985,0.9834695132873228,-33.9248685,18.4240553,Cape Town,ZA,60.8,75,82,12.75
502,-62.59099457461469,14.638804548663234,-34.4092004,19.2504436,Hermanus,ZA,54.88,92,99,3.33
503,21.73280237782399,-46.53255907279052,13.2101681,-59.5253545,Bathsheba,BB,80.6,20,83,18.34
504,77.10815931872031,38.97756449509565,68.878911,35.6675264,Tumannyy,RU,29.37,80,98,5.12
505,-30.860853523148947,51.161977920025876,-25.0225309,46.9853688,Taolanaro,MG,69.8,40,88,20.8
506,19.919290462233494,-16.142371849212697,20.9425179,-17.0362272,Nouadhibou,MR,71.6,92,43,12.75
507,-21.186208368557253,-23.26670237898532,-7.926222999999999,-14.4112011,Georgetown,SH,75.04,68,100,17.81
508,-6.722390307975884,-38.274909044510494,-6.7519382,-38.2314566,Sousa,BR,80.04,36,55,11.61
509,-0.6678471097954408,18.645112903350903,0.0265717,18.2970692,Mbandaka,CD,72.43,44,100,2.48
510,-4.6619066535956755,133.95315151675993,-5.5680317,132.3446399,Tual,ID,83.82,0,100,4.27
511,35.40856122214971,81.79801585688794,34.1525864,77.57705349999999,Leh,IN,1.33,64,84,0.58
512,-21.80331019095666,-21.171334080994246,-7.926222999999999,-14.4112011,Georgetown,SH,75.04,68,100,17.81
513,27.07249314661513,37.61283086065341,28.3835079,36.5661908,Tabuk,SA,62.6,0,55,3.36
514,-4.535126790701589,15.457530601621666,-4.4419311,15.2662931,Kinshasa,CD,75.2,44,88,6.93
515,-13.653344386808065,-5.161984622988799,-15.9286343,-5.7151749,Jamestown,SH,67.21,80,100,19.04
516,-0.25932367548551805,16.23420124942655,-0.4829632,15.8936224,Owando,CG,70.99,44,94,4.5
517,70.2963953964222,-1.3410694148190447,62.2271922,-6.5779064,Klaksvik,FO,44.6,88,81,24.16
518,40.38178286276564,13.97564256700061,40.742916,13.938935,Ischia,IT,49.44,75,87,5.82
519,-18.921554703290738,80.47064755343902,-0.6060574,73.0892245,Hithadhoo,MV,82.65,88,100,11.27
520,1.3786109763183636,-4.4995373118352235,5.1365199,-5.0260479,Grand-Lahou,CI,77.02,36,90,3.83
521,-22.471224923642673,90.5055758929484,-3.5778471,102.3463875,Bengkulu,ID,72.12,92,95,2.48
522,-12.76186440758456,27.768706039237742,-12.5419553,27.8545867,Chingola,ZM,62.22,76,97,4.61
523,-67.66705503606228,127.08931551475055,-42.7828332,147.0593848,New Norfolk,AU,78.8,20,19,16.11
524,-3.5553233554127788,3.4506113394046154,-0.7351025999999999,8.7591311,Port-Gentil,GA,79.36,76,99,6.8
525,-73.36449848756051,21.89663804083998,-34.5385222,20.0568771,Bredasdorp,ZA,60.8,92,87,11.41
526,56.14872554405949,18.07767054156455,54.79074,18.403,Wladyslawowo,PL,32.0,20,100,9.17
527,47.69853904444856,58.90927432610888,48.8313352,58.1488829,Emba,KZ,33.24,88,92,6.35
528,-42.68248268360469,83.24508690012388,-33.6554927,115.3500188,Busselton,AU,65.77,0,99,15.9
529,-0.13954020078591256,3.198727252614706,-0.7351025999999999,8.7591311,Port-Gentil,GA,79.36,76,99,6.8
530,2.6362286532556443,-82.21268199659642,0.6116136999999999,-80.02065499999999,Muisne,EC,70.9,56,83,6.35
531,0.0790461186526138,-2.0458554901981105,4.8665091,-2.240888,Axim,GH,80.71,76,100,8.93
532,2.7265295319674077,-6.9607681128691405,5.101151,-7.3516558,Tabou,CI,70.72,32,98,2.59
533,9.935219315556587,-40.243743517527484,-1.3464282,-46.01818799999999,Carutapera,BR,79.9,92,81,8.08
534,7.85642962758166,-7.637963413233103,7.744231399999999,-7.616843899999999,Biankouma,CI,67.66,0,97,3.89
535,-3.781740503477394,96.64156500292799,-0.9470831999999999,100.417181,Padang,ID,83.64,92,100,3
536,-1.4774401303615183,-11.758784810289995,-7.926222999999999,-14.4112011,Georgetown,SH,75.04,68,100,17.81
537,-21.493022421640845,18.96567646055964,-22.3990179,18.9739954,Gobabis,NA,68.0,32,56,2.24
538,-22.369208889287407,-27.51180562669377,-17.6793494,-39.6105142,Caravelas,BR,70.59,24,90,5.91
539,0.5311615572697285,-42.338749448776056,-2.7617805,-42.275917,Tutoia,BR,78.37,8,86,12.44
540,-21.056565906831256,83.35487140516815,-0.6060574,73.0892245,Hithadhoo,MV,82.65,88,100,11.27
541,-11.784321027763827,-12.47427163272038,-7.926222999999999,-14.4112011,Georgetown,SH,75.04,68,100,17.81
542,-20.96617154098833,-28.67999797427907,-17.6793494,-39.6105142,Caravelas,BR,70.59,24,90,5.91
543,11.846079883314417,-21.72444737912263,14.93305,-23.5133267,Praia,CV,78.8,76,74,11.41
544,-7.406677323937169,-85.65349001721479,-5.0938488,-81.0962172,Paita,PE,61.77,12,93,5.84
545,-52.298747936396914,41.10666949572718,-33.0291582,27.8545867,East London,ZA,63.39,92,100,3.49
546,-3.8735810870132186,-98.36223990518118,-0.7432918,-90.3156893,Puerto Ayora,EC,68.11,0,100,9.82
547,14.42320312440622,60.10892786984929,17.0506675,54.1065864,Salalah,OM,82.4,0,32,14.99
548,1.2645138963843856,-2.7156205700243574,4.8665091,-2.240888,Axim,GH,80.71,76,100,8.93
549,0.881721678496787,-59.82796037426234,2.8235098,-60.6758331,Boa Vista,BR,82.4,40,65,8.05
550,19.567493731414324,-6.686899188567291,18.904265,-3.5275161,Araouane,ML,50.83,0,40,7.58
551,2.3433594136450675,152.28156814046284,-2.5781167,150.8086082,Kavieng,PG,86.02,32,100,8.3
552,51.82454605388274,7.910823782607723,52.0169417,7.209786,Rosendahl,DE,34.81,32,100,4.7
553,19.627491190365156,59.28382582767055,22.5652759,59.5066376,Sur,OM,78.46,0,97,16.31
554,-6.231454324003683,39.65531401482968,-6.4278933,39.5523859,Sokoni,TZ,75.2,20,94,3.89
555,16.832769435740886,-73.11809415855217,18.2807252,-73.3959201,Aquin,HT,81.97,64,100,21.45
556,-21.82872956735642,-46.41952955170525,-21.7853787,-46.5619303,Pocos De Caldas,BR,59.07,0,62,3.38
557,32.483808417668236,-87.05389917012698,32.4073589,-87.02110069999999,Selma,US,57.2,1,71,6.93
558,-27.469782675537562,-40.046249520716984,-22.9657374,-42.02798689999999,Arraial Do Cabo,BR,69.8,20,83,8.05
559,29.17188213039794,-8.623007156353141,29.693392,-9.732156999999999,Tiznit,MA,33.73,0,82,2.04
560,6.483957639267609,104.23109675636479,5.329624,103.1370142,Kuala Terengganu,MY,80.6,75,88,4.7
561,-13.048539125967181,-50.80817669484532,-13.2734823,-50.16385,Sao Miguel Do Araguaia,BR,75.31,44,91,5.57
562,84.91899477520154,13.81346026004576,78.0648475,14.2334597,Barentsburg,SJ,30.2,75,92,5.82
563,27.40468548298532,34.5465686876244,27.2578957,33.8116067,Hurghada,EG,66.2,0,39,6.93
564,-50.749816496971384,109.92656001713233,-35.0275298,117.883959,Albany,AU,62.67,0,75,11.95
565,8.167549235194791,22.793684418644375,8.070618999999999,22.3948737,Ouadda,CF,63.61,8,85,3.89
566,63.63005045236239,-30.709210190900606,64.89604849999999,-23.7060262,Olafsvik,IS,41.11,64,100,24.47
567,3.4832724338469934,-70.81458677460724,4.444497,-69.79868499999999,Cumaribo,CO,75.04,8,96,2.1
568,2.0972790502581455,32.319036920733566,1.8730263,32.6277455,Apac,UG,63.57,68,100,1.54
569,-71.69470001540225,30.48733781333672,-33.7139247,25.5207358,Port Elizabeth,ZA,64.4,75,88,6.93
570,54.99735161186142,3.8840588746101368,52.95628079999999,4.7607971,Den Helder,NL,47.62,76,75,12.75
571,29.04902301483255,54.3164883485271,28.7559514,54.5546793,Darab,IR,25.77,0,66,2.04
572,-5.341269040942199,-112.68587884482314,-0.7432918,-90.3156893,Puerto Ayora,EC,68.11,0,100,9.82
573,-4.385116273492326,21.09544290958224,-4.3253802,20.5870955,Ilebo,CD,73.42,88,94,2.55
574,32.10888903095466,-8.680416345600573,32.3008151,-9.2272033,Asfi,MA,48.13,0,85,4.72
575,-14.171033332473522,-0.29524020863098743,-15.9286343,-5.7151749,Jamestown,SH,67.21,80,100,19.04
576,-8.74379469294318,141.12982616220123,-8.7127052,141.6491827,Morehead,PG,81.16,92,90,7.85
577,-39.34653390414406,8.294065664586313,-33.9248685,18.4240553,Cape Town,ZA,60.8,75,82,12.75
578,21.06214359604507,4.709394760164571,18.7390029,7.3894772,Arlit,NE,54.97,0,45,2.82
579,68.16997533277922,88.34855357643838,69.18823429999999,33.2454834,Snezhnogorsk,RU,30.2,75,92,2.24
580,6.50878477371416,105.36020940890766,5.329624,103.1370142,Kuala Terengganu,MY,80.6,75,88,4.7
581,-10.553138565608046,-10.608135496552595,-7.926222999999999,-14.4112011,Georgetown,SH,75.04,68,100,17.81
582,-6.0484005778048475,58.98301514257504,-4.619143,55.4513149,Victoria,SC,77.0,20,94,2.24
583,15.762911137483101,22.29213449392326,14.5257818,20.9238397,Biltine,TD,57.72,0,55,4.56
584,26.674083196575392,125.1692935042651,24.8051928,125.2789544,Hirara,JP,78.8,75,83,9.17
585,16.800631519821412,-31.26085323580307,17.2004826,-25.0925624,Ponta Do Sol,CV,78.82,68,97,13.89
586,-40.67613129715798,43.648121059371746,-25.3168473,45.48630929999999,Tsihombe,MG,68.34,0,85,12.62
587,-19.23642040071052,42.65725151476701,-20.2904186,44.2999955,Morondava,MG,74.55,68,95,1.7
588,6.018755416096778,21.435483855142806,6.2716406,21.1950767,Ippy,CF,69.46,44,87,7.36
589,30.07232432758471,-46.32100296054914,32.3819877,-64.6769793,Saint George,BM,69.8,40,100,4.7
590,-26.993449491198987,5.202338246243287,-26.6420382,15.1639082,Luderitz,NA,59.0,0,82,9.17
591,11.857969222197319,10.017052761505706,11.6726385,10.2039477,Azare,NG,62.94,0,52,3.38
592,7.1593043377601635,-106.28142466250245,17.6625661,-101.58734,Ixtapa,MX,86.0,5,70,5.73
593,15.552053931261927,8.256256147510337,14.972892,8.8831506,Tanout,NE,54.57,0,38,4.23
594,-18.741253468762757,-16.59060174975087,-7.926222999999999,-14.4112011,Georgetown,SH,75.04,68,100,17.81
595,-14.434289095237006,25.355744901698966,-14.8119398,24.7973983,Kaoma,ZM,65.05,76,97,6.02
596,52.24639312058679,-15.174459989188252,52.14093889999999,-10.2640135,Dingle,IE,53.49,92,97,10.16
597,56.18080353970355,27.062354049840774,55.894769,27.162763,Kraslava,LV,31.44,80,99,8.25
598,62.81490857027565,12.771654176789962,62.5748112,11.3841068,Roros,NO,12.2,12,100,4.7
599,43.50238363161657,-106.6383955682446,42.866632,-106.313081,Casper,US,46.4,1,28,10.29
